City_ID,City,Lat,Lng,Max Temp,Humidity,Cloudiness,Wind Speed,Country,Date
0,puerto ayora,-0.7393,-90.3518,24.19,97,100,1.34,EC,1678270213
1,port elizabeth,-33.918,25.5701,24.62,68,1,4.02,ZA,1678270271
2,talnakh,69.4865,88.3972,-27.72,96,94,3.49,RU,1678270271
3,chivay,-15.6383,-71.6011,8.96,87,100,0.42,PE,1678270271
4,vaini,-21.2,-175.2,25.7,68,89,9.78,TO,1678270272
5,darnah,32.767,22.6367,18.63,59,18,5.27,LY,1678270272
6,hobart,-42.8794,147.3294,12.37,65,40,8.23,AU,1678270072
7,hermanus,-34.4187,19.2345,25.45,65,15,7.09,ZA,1678270272
8,acapulco,16.8634,-99.8901,22.9,88,0,1.03,MX,1678270273
9,husavik,66.0449,-17.3389,-5.06,74,100,8.46,IS,1678270273
10,saskylakh,71.9167,114.0833,-26.01,97,72,3.69,RU,1678270273
11,bethel,41.3712,-73.414,-1.47,66,75,5.14,US,1678270273
12,lagoa,39.05,-27.9833,14.84,82,34,15.25,PT,1678270274
13,punta arenas,-53.15,-70.9167,5.06,81,75,2.06,CL,1678270274
14,busselton,-33.65,115.3333,21.27,63,98,6.03,AU,1678270274
15,praia,14.9215,-23.5087,31.3,12,20,6.17,CV,1678270274
16,torbay,47.6666,-52.7314,1.26,93,100,8.94,CA,1678270274
17,dikson,73.5069,80.5464,-35.84,97,27,2.24,RU,1678270274
18,hearst,49.6835,-83.6665,-14.87,99,100,2.35,CA,1678270275
19,ribeira grande,38.5167,-28.7,17.1,88,40,11.83,PT,1678270275
20,radhanpur,23.8333,71.6,34.63,14,1,5.98,IN,1678270275
21,ushuaia,-54.8,-68.3,-0.06,95,47,2.45,AR,1678270050
22,chokurdakh,70.6333,147.9167,-37.57,100,95,1.63,RU,1678270233
23,bredasdorp,-34.5322,20.0403,24.8,48,0,6.38,ZA,1678270120
24,bocas del toro,9.3333,-82.25,23.8,80,100,2.21,PA,1678270275
25,kurumkan,54.3,110.3,-7.85,87,64,1.14,RU,1678270275
26,los llanos de aridane,28.6585,-17.9182,18.86,79,0,1.03,ES,1678270275
27,buraydah,26.326,43.975,27.86,25,76,1.86,SA,1678270208
28,upernavik,72.7868,-56.1549,-17.23,96,84,3.8,GL,1678270201
29,pavlogradka,54.2024,73.5592,-5.05,89,65,7.54,RU,1678270276
30,svelvik,59.6137,10.4087,0.36,59,18,0.67,NO,1678270276
31,port alfred,-33.5906,26.891,24.54,77,14,4.02,ZA,1678270276
32,mataura,-46.1927,168.8643,16.78,60,94,1.49,NZ,1678270276
33,albany,42.6001,-73.9662,-3.21,72,20,0.89,US,1678270276
34,cape town,-33.9258,18.4232,22.29,79,100,3.58,ZA,1678270103
35,provideniya,64.3833,-173.3,-18.81,100,99,1.16,RU,1678270276
36,souillac,-20.5167,57.5167,27.28,68,100,6.52,MU,1678270276
37,rikitea,-23.1203,-134.9692,25.84,84,100,8.28,PF,1678270276
38,chuy,-33.6971,-53.4616,21.79,97,95,1.83,UY,1678270277
39,xai-xai,-25.0519,33.6442,28.17,59,12,4.94,MZ,1678270277
40,thompson,55.7435,-97.8558,-29.81,100,100,1.48,CA,1678270277
41,guerrero negro,27.9769,-114.0611,12.75,74,4,7.6,MX,1678270030
42,beloha,-25.1667,45.05,32.21,49,51,4.35,MG,1678270277
43,nikolskoye,59.7035,30.7861,-1.16,91,100,5.12,RU,1678270277
44,jamestown,42.097,-79.2353,-1.23,69,100,5.14,US,1678270277
45,atuona,-9.8,-139.0333,26.32,79,59,4.7,PF,1678270277
46,harper,4.375,-7.7169,29.05,70,94,3.23,LR,1678270278
47,lensk,60.7253,114.9278,-4.41,94,93,2.71,RU,1678270278
48,qaanaaq,77.484,-69.3632,-16.54,89,57,2.77,GL,1678270278
49,ambilobe,-13.2,49.05,30.15,66,53,4.9,MG,1678270278
50,pevek,69.7008,170.3133,-28.16,90,94,0.99,RU,1678270278
51,lompoc,34.6391,-120.4579,4.77,91,75,0.0,US,1678270278
52,port hardy,50.6996,-127.4199,2.43,92,99,1.62,CA,1678270278
53,eyl,7.9803,49.8164,29.31,53,28,8.26,SO,1678270279
54,maridi,4.9158,29.4742,39.4,16,60,3.09,SS,1678270279
55,tieli,46.95,128.05,-3.3,82,76,1.96,CN,1678270279
56,diego de almagro,-26.3667,-70.05,15.26,76,5,0.76,CL,1678270279
57,ilulissat,69.2167,-51.1,-3.99,39,87,4.63,GL,1678270279
58,karratha,-20.7377,116.8463,31.22,59,6,4.04,AU,1678270279
59,kuching,1.55,110.3333,29.45,82,20,2.68,MY,1678270279
60,magnitogorsk,53.4186,59.0472,-2.91,68,75,8.0,RU,1678270198
61,prince albert,53.2001,-105.7677,-18.96,98,96,3.32,CA,1678270279
62,manggar,-2.8833,108.2667,27.28,79,72,1.08,ID,1678270280
63,sao filipe,14.8961,-24.4956,24.73,65,0,4.05,CV,1678270280
64,shitkino,56.3703,98.3543,-1.86,97,100,4.4,RU,1678270280
65,carnarvon,-24.8667,113.6333,26.91,69,6,11.52,AU,1678270280
66,salvador,13.8333,-88.9167,18.92,84,90,0.98,SV,1678270225
67,mahebourg,-20.4081,57.7,29.03,67,96,6.42,MU,1678270280
68,mar del plata,-38.0023,-57.5575,21.72,94,20,1.79,AR,1678270071
69,ancud,-41.8697,-73.8203,10.25,89,27,0.52,CL,1678270280
70,chhapar,27.8167,74.4,29.23,18,96,3.5,IN,1678270280
71,hilo,19.7297,-155.09,22.92,89,0,2.57,US,1678270077
72,tiksi,71.6872,128.8694,-27.81,94,83,2.35,RU,1678270104
73,jasper,37.2001,-94.3502,8.83,84,100,2.57,US,1678270281
74,flinders,-34.5833,150.8552,21.14,53,22,5.28,AU,1678270281
75,tasiilaq,65.6145,-37.6368,-8.91,75,7,2.82,GL,1678270281
76,barvinkove,48.9097,37.0205,10.28,70,100,6.94,UA,1678270281
77,arraial do cabo,-22.9661,-42.0278,25.92,78,0,6.69,BR,1678270281
78,escondido,33.1192,-117.0864,8.73,87,0,1.54,US,1678270281
79,butaritari,3.0707,172.7902,27.45,73,100,4.66,KI,1678270282
80,leningradskiy,69.3833,178.4167,-30.16,92,16,1.7,RU,1678270282
81,caldwell,43.6629,-116.6874,0.08,82,0,6.69,US,1678270282
82,havoysund,70.9963,24.6622,-1.87,85,100,6.86,NO,1678270282
83,dalvik,65.9702,-18.5286,-6.14,88,100,6.43,IS,1678270282
84,kaitangata,-46.2817,169.8464,15.47,79,99,1.78,NZ,1678270282
85,labuhan,-6.8844,112.2051,27.87,78,31,2.06,ID,1678270282
86,nizhnyaya tavda,57.6731,66.1725,-6.76,82,100,2.55,RU,1678270282
87,smithers,54.7804,-127.1743,-7.48,96,100,1.03,CA,1678270283
88,malakal,9.5334,31.6605,37.72,15,94,1.99,SS,1678270283
89,marawi,7.9986,124.2928,20.92,97,70,1.83,PH,1678270283
90,ust-nera,64.5667,143.2,-30.39,100,91,1.35,RU,1678270283
91,sorong,-0.8833,131.25,27.19,80,67,3.24,ID,1678270283
92,zambezi,-13.5432,23.1047,25.21,75,100,2.23,ZM,1678270283
93,yellowknife,62.456,-114.3525,-18.58,84,93,4.47,CA,1678270283
94,nocera inferiore,40.7522,14.6401,16.5,75,100,2.58,IT,1678270283
95,phan thiet,10.9333,108.1,25.83,64,11,9.16,VN,1678270284
96,pangnirtung,66.1451,-65.7125,-6.39,77,44,2.36,CA,1678270284
97,anicuns,-16.4611,-49.9617,19.53,96,100,1.35,BR,1678270284
98,lata,40.1629,-8.3327,15.51,89,100,4.76,PT,1678270284
99,ngunguru,-35.6167,174.5,15.94,79,3,2.06,NZ,1678270284
100,kudahuvadhoo,2.6708,72.8944,27.78,77,12,6.56,MV,1678270285
101,longyearbyen,78.2186,15.6401,-11.09,62,75,6.17,SJ,1678270285
102,margate,51.3813,1.3862,3.28,90,100,3.58,GB,1678270123
103,polewali,-3.4324,119.3435,26.93,83,99,1.39,ID,1678270285
104,narsaq,60.9167,-46.05,2.12,66,11,4.4,GL,1678270250
105,lanja,16.85,73.55,36.69,17,11,4.55,IN,1678270286
106,faanui,-16.4833,-151.75,28.3,73,97,5.35,PF,1678270286
107,srednekolymsk,67.45,153.6833,-26.95,100,100,1.25,RU,1678270286
108,huarmey,-10.0681,-78.1522,23.59,79,100,1.81,PE,1678270286
109,ribas do rio pardo,-20.4431,-53.7592,22.02,90,100,0.78,BR,1678270286
110,darhan,49.4867,105.9228,4.45,42,98,2.65,MN,1678270287
111,kedgwick,47.6446,-67.3434,-0.78,95,100,3.63,CA,1678270287
112,sakakah,29.9697,40.2064,26.31,21,0,6.69,SA,1678270287
113,namatanai,-3.6667,152.4333,25.36,88,100,3.68,PG,1678270288
114,sitka,57.0531,-135.33,-2.06,26,0,1.54,US,1678270288
115,ahipara,-35.1667,173.1667,15.11,84,19,0.42,NZ,1678270288
116,lethem,3.3803,-59.7968,23.29,81,75,4.53,GY,1678270288
117,baie-comeau,49.2168,-68.1489,1.18,89,100,3.35,CA,1678270288
118,kolda,12.8833,-14.95,34.33,11,61,3.61,SN,1678270289
119,ugoofaaru,5.6667,73.0,27.72,76,3,7.96,MV,1678270289
120,east wenatchee bench,47.4257,-120.2812,1.76,92,100,2.57,US,1678270289
121,cidreira,-30.1811,-50.2056,22.04,88,41,2.6,BR,1678270060
122,golovchino,50.5341,35.797,6.38,81,100,6.19,RU,1678270290
123,barrow,71.2906,-156.7887,-1.99,93,100,3.6,US,1678270088
124,dunedin,-45.8742,170.5036,17.94,64,88,3.19,NZ,1678270290
125,airai,-8.9266,125.4092,17.24,96,90,1.08,TL,1678270290
126,basco,20.4487,121.9702,22.31,63,2,6.67,PH,1678270290
127,iqaluit,63.7506,-68.5145,-7.39,85,10,4.02,CA,1678270291
128,alandi,18.6667,73.9,32.43,16,20,2.15,IN,1678270291
129,sawakin,19.1059,37.3321,27.62,68,75,7.5,SD,1678270291
130,severodvinsk,64.5635,39.8302,-5.94,85,71,3.73,RU,1678270169
131,dong hoi,17.4833,106.6,22.61,83,2,3.52,VN,1678270291
132,zaraza,9.3503,-65.3245,22.98,81,95,1.75,VE,1678270291
133,shimoda,34.6667,138.95,14.5,74,1,5.25,JP,1678270292
134,asosa,10.0667,34.5333,29.15,20,93,1.97,ET,1678270292
135,neuquen,-38.9516,-68.0591,19.85,48,58,3.89,AR,1678270292
136,hithadhoo,-0.6,73.0833,28.39,72,5,4.15,MV,1678270292
137,talaya,61.3833,152.75,-31.78,100,47,1.11,RU,1678270126
138,sechura,-5.5569,-80.8222,23.9,91,100,2.4,PE,1678270292
139,panjab,34.388,67.0233,3.41,95,83,1.38,AF,1678270292
140,petropavlovsk-kamchatskiy,53.0452,158.6483,-8.74,92,60,2.3,RU,1678270293
141,khatanga,71.9667,102.5,-22.53,98,100,2.99,RU,1678270293
142,avarua,-21.2078,-159.775,26.03,89,75,1.54,CK,1678270293
143,bluff,-46.6,168.3333,18.02,75,99,6.49,NZ,1678270293
144,san patricio,28.017,-97.5169,22.92,93,12,3.57,US,1678270293
145,tiassale,5.8983,-4.8283,31.59,53,97,1.23,CI,1678270294
146,shelburne,44.0787,-80.2041,-4.58,77,65,7.26,CA,1678270294
147,casino,-28.8667,153.05,25.99,85,100,2.23,AU,1678270294
148,pietarsaari,63.65,22.6833,-5.56,70,100,1.34,FI,1678270294
149,tutoia,-2.7619,-42.2744,26.6,83,50,5.25,BR,1678270294
150,bom jesus,-9.0744,-44.3586,23.79,58,54,0.68,BR,1678270294
151,houma,29.5958,-90.7195,21.11,92,100,0.0,US,1678270295
152,hobyo,5.3505,48.5268,29.01,60,73,8.68,SO,1678270295
153,richards bay,-28.783,32.0377,29.81,47,33,5.49,ZA,1678270135
154,mayo,38.8876,-76.5119,2.97,46,0,4.12,US,1678270295
155,bambous virieux,-20.3428,57.7575,29.01,67,93,6.49,MU,1678270295
156,tchollire,8.4022,14.1698,38.74,6,23,2.49,CM,1678270295
157,hwange,-18.3693,26.5019,30.13,43,92,2.84,ZW,1678270295
158,tuktoyaktuk,69.4541,-133.0374,-19.55,85,9,8.79,CA,1678270295
159,powell river,49.8496,-124.5361,4.44,79,100,3.1,CA,1678270127
160,kabelvag,68.2114,14.4817,-7.0,63,0,4.63,NO,1678270296
161,sioux lookout,50.1001,-91.917,-11.06,95,100,3.24,CA,1678270296
162,mercedes,-34.6515,-59.4307,20.44,82,0,2.95,AR,1678270296
163,rockingham,42.9668,-71.0995,-0.83,73,48,1.34,US,1678270297
164,teahupoo,-17.8333,-149.2667,22.98,84,67,4.66,PF,1678270297
165,bima,-8.4667,118.7167,25.23,92,98,0.39,ID,1678270297
166,anadyr,64.75,177.4833,-26.67,75,0,1.0,RU,1678270008
167,mitsamiouli,-11.3847,43.2844,28.92,66,100,5.69,KM,1678270297
168,neryungri,56.6709,124.6491,-12.68,92,100,3.15,RU,1678270297
169,kapaa,22.0752,-159.319,20.18,91,20,5.14,US,1678270298
170,bajil,15.0584,43.2851,34.2,31,35,4.64,YE,1678270298
171,georgetown,5.4112,100.3354,30.96,70,20,5.14,MY,1678270277
172,kruisfontein,-34.0033,24.7314,23.27,50,0,11.11,ZA,1678270298
173,tabou,4.423,-7.3528,28.61,72,99,2.07,CI,1678270299
174,kotido,2.9806,34.1331,32.85,21,16,7.77,UG,1678270299
175,fort nelson,58.8053,-122.7002,-17.81,88,100,2.62,CA,1678270300
176,haines junction,60.7522,-137.5108,-23.05,100,96,0.9,CA,1678270300
177,marsa matruh,31.3525,27.2453,20.23,34,22,1.13,EG,1678270300
178,mathathane,-22.2687,28.7495,29.14,38,10,4.73,BW,1678270300
179,pimentel,-6.8367,-79.9342,24.16,88,75,1.03,PE,1678270300
180,cherskiy,68.75,161.3,-25.2,99,100,2.31,RU,1678270301
181,yeppoon,-23.1333,150.7333,26.88,78,100,4.39,AU,1678270301
182,salalah,17.0151,54.0924,31.05,25,20,2.06,OM,1678270178
183,batemans bay,-35.7167,150.1833,18.94,58,39,3.2,AU,1678270301
184,port-gentil,-0.7193,8.7815,27.61,79,94,6.28,GA,1678270301
185,yulara,-25.2406,130.9889,25.1,18,0,5.42,AU,1678270301
186,clyde river,70.4692,-68.5914,-19.99,99,43,2.44,CA,1678270301
187,severo-kurilsk,50.6789,156.125,-2.5,84,90,4.47,RU,1678270302
188,warmbad,-28.45,18.7333,22.58,33,0,1.74,NA,1678270302
189,nuuk,64.1835,-51.7216,-8.11,80,12,4.14,GL,1678270302
190,new norfolk,-42.7826,147.0587,12.18,62,91,1.34,AU,1678270302
191,ube,33.9431,131.2511,15.69,74,100,1.79,JP,1678270302
192,grand-santi,4.25,-54.3833,20.7,100,84,0.78,GF,1678270303
193,quibdo,5.6947,-76.6611,21.93,99,99,0.3,CO,1678270303
194,saldanha,-33.0117,17.9442,19.11,79,87,5.41,ZA,1678270303
195,castro,-24.7911,-50.0119,17.06,93,69,1.16,BR,1678270303
196,tervel,43.75,27.4,18.49,37,22,4.98,BG,1678270303
197,bengkulu,-3.8004,102.2655,27.65,77,60,3.04,ID,1678270303
198,cacapava do sul,-30.5122,-53.4914,19.72,91,79,0.95,BR,1678270304
199,cabedelo,-6.9811,-34.8339,25.37,77,41,6.37,BR,1678270304
200,woodward,36.4337,-99.3904,3.57,76,100,5.66,US,1678270304
201,vardo,70.3705,31.1107,-8.01,86,75,7.72,NO,1678270304
202,bilibino,68.0546,166.4372,-20.71,100,100,0.13,RU,1678270305
203,calabozo,8.9242,-67.4293,25.62,62,84,3.63,VE,1678270305
204,kristiansund,63.1115,7.732,-1.97,58,40,3.6,NO,1678270306
205,igboho,8.8333,3.75,32.67,43,47,3.43,NG,1678270306
206,dali,25.7,100.1833,22.51,23,13,3.4,CN,1678270306
207,codrington,-38.2667,141.9667,12.85,65,67,6.27,AU,1678270306
208,victoria,22.2855,114.1577,24.1,74,14,4.02,HK,1678270262
209,badacsonytomaj,46.8071,17.5138,9.01,81,100,5.48,HU,1678270307
210,sambava,-14.2667,50.1667,30.66,58,99,3.87,MG,1678270307
211,ponta do sol,32.6667,-17.1,23.34,91,100,2.77,PT,1678270307
212,gold coast,-28.0,153.4333,26.92,86,100,6.17,AU,1678270307
213,guapo,-16.8306,-49.5319,21.21,96,100,2.22,BR,1678270307
214,san luis,-33.295,-66.3356,19.65,50,0,2.51,AR,1678270174
215,henties bay,-22.116,14.2845,19.8,67,0,3.51,NA,1678270308
216,college,64.8569,-147.8028,1.0,82,75,0.0,US,1678270308
217,palmer,42.1584,-72.3287,-1.35,62,100,4.12,US,1678270308
218,ambon,-3.6954,128.1814,28.08,83,40,1.54,ID,1678270308
219,rock springs,41.5875,-109.2029,-11.31,87,20,2.06,US,1678270308
220,kahului,20.8947,-156.47,25.47,77,75,11.32,US,1678270309
221,saint-augustin,51.226,-58.6502,0.21,80,99,7.12,CA,1678270309
222,grindavik,63.8424,-22.4338,-5.74,53,20,8.23,IS,1678270309
223,akyab,20.15,92.9,28.54,54,77,5.76,MM,1678270310
224,saint-philippe,-21.3585,55.7679,28.77,81,94,5.69,RE,1678270310
225,aswan,24.0934,32.907,27.27,13,0,6.79,EG,1678270310
226,payo,-3.7508,103.6372,29.1,72,32,1.42,ID,1678270311
227,faya,18.3851,42.4509,23.29,35,49,4.97,SA,1678270311
228,cache creek,50.8101,-121.3246,-8.46,99,91,0.79,CA,1678270312
229,kieta,-6.2167,155.6333,26.34,87,94,3.16,PG,1678270312
230,muros,42.7762,-9.0603,16.16,92,100,9.28,ES,1678270312
231,geraldton,-28.7667,114.6,28.23,47,2,7.72,AU,1678270312
232,port lincoln,-34.7333,135.8667,16.49,71,85,5.93,AU,1678270312
233,la ronge,55.1001,-105.2842,-24.62,100,94,1.95,CA,1678270313
234,hailar,49.2,119.7,-3.17,96,100,6.35,CN,1678270200
235,yelatma,54.9675,41.7508,-1.46,88,90,3.09,RU,1678270313
236,mabaruma,8.2,-59.7833,20.85,99,100,0.87,GY,1678270313
237,kolhapur,16.7,74.2167,34.27,14,5,4.09,IN,1678270313
238,te anau,-45.4167,167.7167,15.68,93,68,3.11,NZ,1678270313
239,isangel,-19.55,169.2667,25.35,73,29,4.23,VU,1678270314
240,abu samrah,35.3029,37.1841,17.53,35,100,2.47,SY,1678270314
241,newport,51.5877,-2.9984,1.68,93,100,8.09,GB,1678270050
242,saint-francois,46.4154,3.9054,13.69,68,100,5.66,FR,1678270314
243,zhigansk,66.7697,123.3711,-28.67,100,54,3.17,RU,1678270314
244,samarai,-10.6167,150.6667,28.44,73,44,0.45,PG,1678270314
245,namibe,-15.1961,12.1522,24.37,68,100,4.53,AO,1678270315
246,nebyliv,48.8153,24.2166,6.91,62,76,5.6,UA,1678270315
247,cassilandia,-19.1133,-51.7342,20.19,94,98,1.02,BR,1678270315
248,kavaratti,10.5669,72.642,27.85,62,0,1.41,IN,1678270315
249,alofi,-19.0595,-169.9187,25.55,86,94,7.34,NU,1678270316
250,honiara,-9.4333,159.95,25.99,88,94,1.23,SB,1678270243
251,walvis bay,-22.9575,14.5053,18.94,54,0,3.86,NA,1678270316
252,ayabaca,-4.6398,-79.7149,9.68,99,100,0.69,PE,1678270316
253,agadir,30.4202,-9.5982,18.25,66,15,1.37,MA,1678270224
254,avera,33.194,-82.5271,10.73,38,6,5.89,US,1678270316
255,mago,53.2514,140.1822,-16.74,98,63,0.88,RU,1678270316
256,seoul,37.5683,126.9778,13.66,63,100,2.08,KR,1678270075
257,belaya,49.029,25.7706,6.75,76,99,4.07,UA,1678270317
258,juba,4.8517,31.5825,40.54,15,43,3.19,SS,1678270317
259,nanortalik,60.1432,-45.2371,-3.99,82,88,1.82,GL,1678270317
260,carutapera,-1.195,-46.02,24.68,92,97,3.07,BR,1678270318
261,shar,49.5886,81.0453,2.3,82,100,3.78,KZ,1678270318
262,sungairaya,0.7,108.9,26.9,86,49,2.7,ID,1678270318
263,juneau,58.3019,-134.4197,-6.0,76,0,6.17,US,1678270018
264,ixtapa,20.7,-105.2,18.46,85,0,0.45,MX,1678270318
265,saint-joseph,-21.3667,55.6167,28.21,76,83,6.34,RE,1678270318
266,whitianga,-36.8333,175.7,15.74,86,13,2.67,NZ,1678270319
267,burns lake,54.2331,-125.7533,-11.94,98,100,1.6,CA,1678270320
268,plettenberg bay,-34.0527,23.3716,22.92,62,0,6.75,ZA,1678270320
269,inhambane,-23.865,35.3833,27.61,78,56,7.7,MZ,1678270320
270,otavi,-19.65,17.3333,31.47,16,37,2.08,NA,1678270320
271,wilmington,34.2257,-77.9447,7.72,47,0,2.68,US,1678270048
272,bagdarin,54.4333,113.6,-10.22,87,49,1.61,RU,1678270320
273,mount gambier,-37.8333,140.7667,12.53,65,66,4.16,AU,1678270321
274,albion,42.2431,-84.753,-0.55,59,0,2.06,US,1678270321
275,kanniyakumari,8.0833,77.5667,29.89,63,2,9.96,IN,1678270321
276,san joaquin,37.9333,-121.3011,7.07,79,75,2.57,US,1678270322
277,kodiak,57.79,-152.4072,6.73,76,0,8.23,US,1678270322
278,lebu,-37.6167,-73.65,14.78,97,98,2.46,CL,1678270322
279,okhotsk,59.3833,143.3,-21.98,96,57,1.11,RU,1678270323
280,fortuna,40.5982,-124.1573,3.29,96,100,0.89,US,1678270323
281,escarcega,18.6089,-90.7454,19.3,89,97,1.4,MX,1678270323
282,algiers,36.7525,3.042,17.9,68,20,4.12,DZ,1678270096
283,saint-raymond,45.467,-73.6095,-3.38,72,100,4.12,CA,1678270324
284,kpandae,8.4689,-0.0113,33.86,42,75,4.38,GH,1678270324
285,quang ngai,15.1167,108.8,23.41,79,34,2.33,VN,1678270324
286,ust-kulom,61.6864,53.6902,-5.53,88,98,2.09,RU,1678270324
287,koslan,63.4564,48.8989,-6.65,89,100,2.96,RU,1678270325
288,kavieng,-2.5744,150.7967,26.4,82,100,5.09,PG,1678270325
289,norman wells,65.282,-126.8329,-23.97,97,40,3.68,CA,1678270325
290,bereda,43.2686,-7.5406,14.67,100,100,5.4,ES,1678270325
291,esperance,-33.8667,121.9,18.89,68,41,8.4,AU,1678270325
292,fort-de-france,14.6089,-61.0733,19.97,94,75,1.54,MQ,1678270325
293,baykit,61.67,96.37,-6.67,93,100,1.62,RU,1678270036
294,porto uniao,-26.2381,-51.0783,15.77,98,83,0.06,BR,1678270325
295,casper,42.8666,-106.3131,-16.22,84,0,3.6,US,1678270326
296,lorengau,-2.0226,147.2712,26.96,80,100,3.05,PG,1678270326
297,barcelona,41.3888,2.159,19.14,56,0,5.14,ES,1678270061
298,goderich,43.7501,-81.7165,-0.05,69,5,9.74,CA,1678270326
299,sur,22.5667,59.5289,29.64,36,0,4.94,OM,1678270326
300,cabo san lucas,22.8909,-109.9124,20.84,73,89,3.76,MX,1678270326
301,olafsvik,64.8945,-23.7142,-4.77,60,92,11.79,IS,1678270326
302,ifanadiana,-21.3,47.6333,25.44,88,100,1.7,MG,1678270327
303,laguna,38.421,-121.4238,7.28,77,100,3.6,US,1678270327
304,chumikan,54.7183,135.315,-15.07,93,3,2.73,RU,1678270327
305,hamilton,39.1834,-84.5333,0.8,58,0,6.69,US,1678270224
306,cockburn town,21.4612,-71.1419,24.08,69,14,2.68,TC,1678270327
307,honningsvag,70.9821,25.9704,-2.14,74,75,6.17,NO,1678270327
308,dingle,10.9995,122.6711,26.57,84,55,3.6,PH,1678270328
309,tongren,27.7172,109.1853,19.0,82,73,1.37,CN,1678270328
310,ayan,56.45,138.1667,-14.68,89,92,1.66,RU,1678270328
311,fagaras,45.85,24.9667,9.58,63,100,4.47,RO,1678270328
312,kollam,8.8833,76.6,29.66,59,2,4.07,IN,1678270310
313,kununurra,-15.7667,128.7333,34.99,36,28,3.09,AU,1678270328
314,kandi,11.1342,2.9386,35.99,27,36,3.17,BJ,1678270092
315,kitimat,54.0524,-128.6534,-3.94,65,97,2.96,CA,1678270329
316,komsomolskiy,40.4272,71.7189,19.4,27,100,7.2,UZ,1678270329
317,saint-louis,16.3333,-15.0,32.63,10,0,7.21,SN,1678270329
318,klaksvik,62.2266,-6.589,-0.49,53,100,9.98,FO,1678270329
319,westport,41.1415,-73.3579,-0.38,65,0,7.2,US,1678270329
320,aksarka,66.5606,67.7975,-20.47,88,38,4.94,RU,1678270329
321,cantaura,9.3057,-64.3584,21.7,85,91,4.94,VE,1678270330
322,vitim,59.4511,112.5578,-6.67,94,75,1.81,RU,1678270330
323,katsuura,35.1333,140.3,15.31,64,0,6.68,JP,1678270330
324,tazovskiy,67.4667,78.7,-25.21,95,77,4.93,RU,1678270330
325,nome,64.5011,-165.4064,-4.35,100,100,6.69,US,1678270330
326,port macquarie,-31.4333,152.9167,20.5,85,44,2.26,AU,1678270330
327,xining,36.6167,101.7667,11.85,13,24,1.03,CN,1678270331
328,aklavik,68.2191,-135.0107,-21.9,92,16,9.92,CA,1678270331
329,tuatapere,-46.1333,167.6833,16.13,81,98,3.18,NZ,1678270331
330,chernyshevskiy,63.0128,112.4714,-7.47,96,100,1.35,RU,1678270331
331,constitucion,-35.3333,-72.4167,12.83,86,56,1.39,CL,1678270332
332,eenhana,-17.4667,16.3333,31.36,30,99,3.37,NA,1678270332
333,ketchikan,55.3422,-131.6461,-1.01,46,100,4.12,US,1678270332
334,mangrol,21.1167,70.1167,29.06,47,0,5.82,IN,1678270333
335,maniwaki,46.3834,-75.966,-9.4,89,94,4.48,CA,1678270333
336,east london,-33.0153,27.9116,32.27,46,0,3.06,ZA,1678270172
337,vestmanna,62.1564,-7.1664,-1.49,59,40,4.12,FO,1678270333
338,odweyne,9.4092,45.064,29.8,20,19,4.38,SO,1678270333
339,gwembe,-16.4975,27.6069,24.86,65,99,2.25,ZM,1678270334
340,mao,39.8885,4.2658,17.31,59,0,4.63,ES,1678270334
341,nizwa,22.9333,57.5333,31.35,16,2,3.66,OM,1678270334
342,hammerfest,70.6634,23.6821,-4.75,93,100,8.23,NO,1678270335
343,saint anthony,45.0205,-93.218,1.18,58,100,6.17,US,1678270335
344,lumeje,-11.55,20.7833,21.25,83,100,2.4,AO,1678270335
345,sydney mines,46.2367,-60.2177,2.65,93,75,9.83,CA,1678270061
346,waverly,42.7392,-84.6208,-1.95,64,0,1.54,US,1678270335
347,luanda,-8.8368,13.2343,29.0,65,75,2.57,AO,1678270060
348,ust-omchug,61.15,149.6333,-30.63,100,26,0.64,RU,1678270335
349,noumea,-22.2763,166.4572,24.99,72,0,4.92,NC,1678270335
350,baruun-urt,46.6806,113.2792,3.43,39,3,4.22,MN,1678270336
351,uusikaupunki,60.8004,21.4084,-3.96,84,100,6.69,FI,1678270336
352,freeport,40.6576,-73.5832,0.14,62,75,8.75,US,1678270336
353,thinadhoo,0.5333,72.9333,27.95,75,11,5.2,MV,1678270336
354,atkarsk,51.8718,45.0078,0.75,100,100,4.13,RU,1678270182
355,manaus,-3.1019,-60.025,25.27,94,75,1.03,BR,1678270334
356,mayumba,-3.432,10.6554,28.09,75,94,3.95,GA,1678270336
357,vestmannaeyjar,63.4427,-20.2734,-1.45,31,0,5.14,IS,1678270223
358,abha,18.2164,42.5053,23.14,27,20,6.17,SA,1678270282
359,inongo,-1.95,18.2667,28.87,65,100,1.77,CD,1678270337
360,javanrud,34.7961,46.5172,9.91,97,100,4.82,IR,1678270337
361,callaway,30.153,-85.5699,21.65,98,20,2.06,US,1678270337
362,kannur,11.8675,75.3576,30.74,45,1,5.21,IN,1678270337
363,vanimo,-2.6741,141.3028,26.0,83,88,2.8,PG,1678270337
364,zeya,53.75,127.2667,-6.11,92,100,2.64,RU,1678270337
365,morant bay,17.8815,-76.4093,22.06,78,95,2.23,JM,1678270338
366,taganak,6.0833,118.3,27.52,79,78,7.74,PH,1678270338
367,aras,42.5617,-2.356,14.87,66,20,2.06,ES,1678270338
368,dwarka,22.2394,68.9678,28.67,37,0,4.12,IN,1678270338
369,skjervoy,70.0311,20.9714,-13.0,63,93,4.65,NO,1678270338
370,maracacume,-2.0428,-45.9592,23.66,96,100,1.19,BR,1678270338
371,garowe,8.4054,48.4845,32.36,26,9,5.44,SO,1678270339
372,danilov,58.1908,40.1717,-4.96,89,100,4.04,RU,1678270339
373,impfondo,1.6381,18.0667,32.87,44,99,2.04,CG,1678270339
374,tucurui,-3.7661,-49.6725,22.84,99,100,1.15,BR,1678270339
375,necocli,8.4234,-76.786,23.63,91,100,3.01,CO,1678270339
376,aykhal,66.0,111.5,-19.62,98,100,4.87,RU,1678270339
377,gat,31.61,34.7642,18.55,100,30,5.91,IL,1678270340
378,cap malheureux,-19.9842,57.6142,29.15,66,75,7.36,MU,1678270340
379,shihezi,44.3,86.0333,2.52,99,100,2.09,CN,1678270340
380,bossangoa,6.4926,17.4552,38.8,14,47,3.56,CF,1678270340
381,polis,35.0367,32.4264,17.9,66,89,3.69,CY,1678270340
382,naze,28.3667,129.4833,16.94,62,88,3.86,JP,1678270340
383,loiza,18.4313,-65.8802,22.26,83,20,0.0,PR,1678270341
384,galdar,28.147,-15.6502,19.64,69,72,2.09,ES,1678270341
385,tankara,22.6667,70.7333,34.68,13,0,2.22,IN,1678270341
386,rio gallegos,-51.6226,-69.2181,7.4,60,88,2.3,AR,1678270341
387,grootfontein,-19.5667,18.1167,29.46,20,91,1.13,NA,1678270341
388,shushenskoye,53.325,91.9356,5.63,73,99,13.66,RU,1678270341
389,bunia,1.5667,30.25,34.01,20,66,4.64,CD,1678270342
390,tecoman,18.9167,-103.8833,19.26,94,26,1.69,MX,1678270342
391,bendigo,-36.7667,144.2833,13.69,51,20,5.24,AU,1678270342
392,japura,-0.3167,102.35,28.13,78,75,1.49,ID,1678270342
393,bonavista,48.6499,-53.1147,0.23,95,100,10.72,CA,1678270342
394,lakhimpur,27.95,80.7667,31.06,13,40,1.72,IN,1678270342
395,grocka,44.6722,20.7175,17.21,40,39,2.54,RS,1678270343
396,caravelas,-17.7125,-39.2481,25.73,79,9,0.3,BR,1678270343
397,tagusao,9.1924,117.8141,26.44,81,52,4.13,PH,1678270343
398,alta gracia,-31.6529,-64.4283,18.27,68,0,1.86,AR,1678270066
399,santander,43.4647,-3.8044,19.7,54,0,5.14,ES,1678270121
400,bud,39.447,-86.1758,2.72,55,90,5.22,US,1678270344
401,verkhoyansk,67.5447,133.385,-32.58,100,54,0.66,RU,1678270344
402,quatre cocos,-20.2078,57.7625,28.94,67,85,6.73,MU,1678270344
403,elko,41.0002,-115.5012,-9.87,87,99,0.89,US,1678270344
404,bandarbeyla,9.4942,50.8122,27.49,61,15,6.35,SO,1678270344
405,campbell river,50.0163,-125.2446,4.03,95,100,0.91,CA,1678270344
406,khorramshahr,30.4397,48.1664,19.97,45,100,9.2,IR,1678270345
407,abu dhabi,24.4667,54.3667,36.06,33,0,3.6,AE,1678270317
408,dolinsk,47.35,142.8,-5.78,93,100,6.13,RU,1678270345
409,stephenville,32.2207,-98.2023,12.73,76,100,4.63,US,1678270345
410,belmonte,-15.8631,-38.8828,24.87,84,32,1.03,BR,1678270346
411,marsala,37.7966,12.4352,16.63,81,26,4.95,IT,1678270346
412,lexington park,38.2668,-76.4538,3.14,48,0,3.6,US,1678270346
413,lavrentiya,65.5833,-171.0,-20.07,99,98,0.63,RU,1678270346
414,raudeberg,61.9875,5.1352,-2.25,88,96,3.69,NO,1678270346
415,adre,13.4667,22.2,34.33,9,100,8.89,TD,1678270346
416,gao,16.6362,1.637,33.46,6,62,4.96,ML,1678270347
417,soni,-4.85,38.3667,30.81,29,84,1.25,TZ,1678270347
418,mitu,1.1983,-70.1733,22.39,98,100,0.71,CO,1678270347
419,san diego de la union,21.4667,-100.8667,11.08,77,1,0.97,MX,1678270347
420,bolshaya sosnova,57.6713,54.6029,-2.84,84,100,4.42,RU,1678270347
421,dakoro,14.5106,6.765,36.15,7,85,5.84,NE,1678270347
422,luderitz,-26.6481,15.1594,22.7,54,0,5.47,NA,1678270348
423,san vicente,-26.6167,-54.1333,17.17,71,30,1.0,AR,1678270105
424,vila franca do campo,37.7167,-25.4333,16.23,87,100,7.34,PT,1678270348
425,mahon,39.8885,4.2658,17.31,59,0,4.63,ES,1678270348
426,flin flon,54.7682,-101.865,-26.93,100,100,1.72,CA,1678270348
427,deputatskiy,69.3,139.9,-34.45,100,62,1.37,RU,1678270245
428,svetlogorsk,52.6333,29.7333,3.54,88,100,7.26,BY,1678270348
429,tezu,27.9167,96.1667,31.38,19,80,1.41,IN,1678270349
430,kirakira,-10.4544,161.9205,26.52,84,100,1.22,SB,1678270349
431,dalgopol,43.05,27.35,18.21,43,16,2.6,BG,1678270312
432,kutum,14.2,24.6667,30.03,10,100,6.66,SD,1678270349
433,umm lajj,25.0213,37.2685,24.73,50,0,7.76,SA,1678270350
434,utiel,39.5667,-1.2,13.28,76,100,10.88,ES,1678270350
435,balkhash,46.844,74.9804,1.34,100,75,6.0,KZ,1678270350
436,coihaique,-45.5752,-72.0662,3.19,99,48,2.44,CL,1678270350
437,aasiaat,68.7098,-52.8699,-17.28,85,95,0.78,GL,1678270350
438,puerto del rosario,28.5004,-13.8627,18.86,77,40,3.09,ES,1678270135
439,ishigaki,24.3448,124.1572,21.2,56,7,3.86,JP,1678270351
440,waingapu,-9.6567,120.2641,24.71,93,100,3.37,ID,1678270351
441,rognan,67.0953,15.3878,-8.4,72,12,2.53,NO,1678270053
442,sorland,67.667,12.6934,-4.08,55,9,5.36,NO,1678270351
443,pisco,-13.7,-76.2167,23.03,88,0,1.03,PE,1678270352
444,arica,-18.475,-70.3042,22.13,73,0,1.54,CL,1678270352
445,pankrushikha,53.8319,80.3406,-1.95,92,100,6.83,RU,1678270352
446,stokmarknes,68.5646,14.9108,-7.02,53,0,2.57,NO,1678270353
447,morrisburg,44.9001,-75.1826,-3.95,93,98,4.12,CA,1678270353
448,murray bridge,-35.1167,139.2667,16.18,61,79,5.67,AU,1678270353
449,eura,61.1333,22.1333,-5.12,84,100,5.81,FI,1678270353
450,sibolga,1.7427,98.7792,27.54,81,31,0.47,ID,1678270353
451,amuntai,-2.4177,115.2494,25.98,85,98,1.05,ID,1678270354
452,meulaboh,4.1363,96.1285,28.7,70,91,2.59,ID,1678270354
453,ihosy,-22.4,46.1167,25.94,70,100,1.95,MG,1678270354
454,vilyuysk,63.7553,121.6247,-16.48,85,100,5.21,RU,1678270354
455,yatou,37.15,122.3833,5.95,88,33,3.65,CN,1678270354
456,westlock,54.1502,-113.8688,-19.52,97,90,3.83,CA,1678270354
457,turukhansk,65.8167,87.9833,-21.9,89,100,3.44,RU,1678270355
458,hasaki,35.7333,140.8333,15.12,65,0,7.78,JP,1678270355
459,nicoya,10.1483,-85.452,23.27,70,99,1.82,CR,1678270355
460,marsh harbour,26.5412,-77.0636,24.33,72,5,6.03,BS,1678270355
461,kaeo,-35.1,173.7833,14.62,89,9,1.43,NZ,1678270355
462,bayonet point,28.3267,-82.6834,22.75,91,24,0.89,US,1678270356
463,la roda,39.2167,-2.15,14.85,80,99,9.21,ES,1678270356
464,tawang,27.5833,91.8667,12.19,48,61,3.29,IN,1678270356
465,fomboni,-12.28,43.7425,28.59,66,94,3.95,KM,1678270356
466,padang,-0.9492,100.3543,30.03,81,31,1.17,ID,1678270093
467,nianzishan,47.5167,122.8833,0.89,47,100,5.13,CN,1678270356
468,lichinga,-13.3128,35.2406,24.05,78,75,2.06,MZ,1678270357
469,nirsa,23.7833,86.7167,34.62,14,23,2.18,IN,1678270357
470,normandin,48.8333,-72.5321,-2.06,96,100,4.83,CA,1678270357
471,yuanping,38.7153,112.7575,16.2,19,21,2.69,CN,1678270357
472,awbari,26.5921,12.7805,25.27,13,0,1.84,LY,1678270357
473,bodden town,19.2833,-81.25,25.52,93,98,0.89,KY,1678270357
474,boa vista,2.8197,-60.6733,23.99,83,0,4.63,BR,1678270162
475,yumen,40.2833,97.2,15.57,15,0,7.98,CN,1678270358
476,taoudenni,22.6783,-3.9836,30.19,8,0,2.02,ML,1678270358
477,joensuu,62.6012,29.7632,-12.73,85,0,4.12,FI,1678270358
478,takoradi,4.8845,-1.7554,28.77,71,93,1.93,GH,1678270359
479,kuytun,54.3419,101.5036,-2.56,89,100,6.81,RU,1678270359
480,calama,-22.4667,-68.9333,11.27,82,40,5.66,CL,1678270359
481,gamboma,-1.8764,15.8644,26.86,75,98,2.84,CG,1678270359
482,vao,-22.6667,167.4833,25.55,63,16,6.95,NC,1678270360
483,hofn,64.2539,-15.2082,-2.99,46,0,10.8,IS,1678270360
484,pueblo,38.2545,-104.6091,-0.09,85,100,2.06,US,1678270361
485,high prairie,55.4334,-116.4858,-19.68,99,35,1.8,CA,1678270361
486,kendari,-3.945,122.4989,24.98,93,100,1.43,ID,1678270361
487,elat,29.5581,34.9482,19.91,64,40,2.06,IL,1678270127
488,soyo,-6.1349,12.3689,28.34,70,100,3.22,AO,1678270361
489,banepa,27.6298,85.5214,18.18,45,75,1.03,NP,1678270361
490,yuancheng,36.652,107.7896,14.53,17,46,7.01,CN,1678270361
491,berdyaush,55.1619,59.1464,-3.76,69,100,3.24,RU,1678270361
492,vilhena,-12.7406,-60.1458,20.08,98,100,0.83,BR,1678270362
493,potam,27.6,-110.3833,16.67,50,77,2.01,MX,1678270362
494,putina,-15.4667,-69.4333,6.74,81,100,2.86,PE,1678270362
495,roma,43.2128,-75.4557,-2.88,74,100,5.66,US,1678270253
496,gamba,-2.65,10.0,26.42,83,100,3.21,GA,1678270363
497,mayskiy,47.6931,40.1025,10.67,53,55,6.12,RU,1678270363
498,olinda,-8.0089,-34.8553,26.85,74,75,5.66,BR,1678270277
499,muisne,0.6,-80.0333,23.48,96,100,3.13,EC,1678270364
500,ligayan,4.6533,119.4706,27.58,80,4,8.09,PH,1678270364
501,ruidoso,33.3317,-105.673,8.06,60,48,0.0,US,1678270364
502,ormara,25.2088,64.6357,25.49,59,0,4.68,PK,1678270364
503,orbetello,42.4408,11.2196,14.67,81,97,5.22,IT,1678270365
504,pitsunda,43.1592,40.3378,16.77,65,86,2.74,GE,1678270365
505,vigrestad,58.5667,5.7,2.12,48,14,1.96,NO,1678270365
506,huainan,32.6264,116.9969,22.73,44,99,2.13,CN,1678270365
507,ler,8.3018,30.1418,39.1,15,100,6.03,SS,1678270365
508,kungurtug,50.5994,97.5228,4.44,71,100,4.2,RU,1678270365
509,pundaguitan,6.3711,126.1689,27.15,84,6,7.74,PH,1678270365
510,paragominas,-2.9667,-47.4833,23.0,98,100,1.08,BR,1678270366
511,kasongo,-4.45,26.6667,29.98,60,100,1.51,CD,1678270366
512,borger,52.9233,6.7931,3.21,88,100,1.98,NL,1678270366
513,lomovka,53.9194,58.3672,-2.74,93,100,4.27,RU,1678270366
514,am timan,11.0297,20.2827,38.47,11,74,7.15,TD,1678270366
515,balgazyn,51.0,95.2,3.58,73,97,1.09,RU,1678270367
516,krivosheino,57.3431,83.9261,-2.51,87,100,4.61,RU,1678270367
517,san cristobal,7.7669,-72.225,19.93,87,100,0.88,VE,1678270367
518,tadine,-21.55,167.8833,24.77,64,17,4.59,NC,1678270368
519,planeta rica,8.4147,-75.5883,23.49,87,99,2.36,CO,1678270368
520,aranos,-24.1333,19.1167,29.53,8,0,1.95,NA,1678270368
521,the valley,18.217,-63.0578,23.39,66,0,1.75,AI,1678270368
522,vicuna,-30.0319,-70.7081,13.85,71,0,0.33,CL,1678270369
523,ferkessedougou,9.6,-5.2,33.75,9,100,3.72,CI,1678270369
524,leshukonskoye,64.8989,45.7622,-6.56,89,100,3.36,RU,1678270369
525,mackay,-21.15,149.2,25.93,86,10,3.97,AU,1678270369
526,russell,32.3502,-85.1999,15.78,55,10,3.68,US,1678270370
527,touros,-5.1989,-35.4608,26.83,78,27,6.01,BR,1678270370
528,anahuac,27.2333,-100.15,20.08,86,23,5.34,MX,1678270371
529,corumba,-19.0092,-57.6533,23.42,83,82,1.25,BR,1678270371
530,teknaf,20.8624,92.3058,29.99,42,62,9.13,BD,1678270371
531,bani walid,31.7566,13.9942,20.53,35,0,3.88,LY,1678270371
532,redlands,34.0556,-117.1825,8.66,79,0,1.54,US,1678270372
533,mezhgorye,44.9667,34.4167,13.27,51,40,5.83,UA,1678270372
534,marzuq,14.4,46.4667,28.36,14,58,5.17,YE,1678270372
535,hervey bay,-25.2986,152.8535,25.87,81,93,5.32,AU,1678270372
536,talcahuano,-36.7167,-73.1167,14.82,94,100,4.12,CL,1678270372
537,camocim,-2.9022,-40.8411,24.9,89,34,4.58,BR,1678270372
538,bambanglipuro,-7.95,110.2833,27.49,76,27,2.84,ID,1678270373
539,hambantota,6.1241,81.1185,30.02,62,20,10.29,LK,1678270373
540,kohlu,29.8962,69.252,23.81,17,0,2.39,PK,1678270373
541,korla,41.7597,86.1469,17.69,24,4,7.53,CN,1678270373
542,makakilo city,21.3469,-158.0858,21.18,81,100,10.29,US,1678270374
543,cupira,-8.6167,-35.95,23.52,79,65,3.91,BR,1678270374
544,meadow lake,34.8014,-106.5436,9.51,59,29,2.47,US,1678270374
545,pitimbu,-7.4706,-34.8086,25.33,76,39,6.01,BR,1678270375
546,kloulklubed,7.0419,134.2556,25.28,76,48,5.18,PW,1678270375
547,vangaindrano,-23.35,47.6,27.1,85,76,3.56,MG,1678270375
548,copiapo,-27.3667,-70.3333,14.83,84,17,0.46,CL,1678270375
549,konevo,62.1215,39.3192,-6.54,84,91,2.64,RU,1678270375
550,denpasar,-8.65,115.2167,29.84,74,20,3.09,ID,1678270258
551,garissa,-0.4536,39.6401,34.74,34,10,3.42,KE,1678270376
552,mehamn,71.0357,27.8492,-3.03,86,75,3.09,NO,1678270376
553,mount isa,-20.7333,139.5,19.87,100,75,8.23,AU,1678270376
554,vanavara,60.34,102.2797,-6.05,91,100,1.37,RU,1678270277
555,jinotega,13.0917,-86.0018,15.4,95,97,1.75,NI,1678270376
556,batagay-alyta,67.8006,130.4114,-33.35,98,22,2.02,RU,1678270377
557,erenhot,43.6475,111.9767,9.03,18,9,7.89,CN,1678270377
558,prince rupert,54.3161,-130.3201,-3.19,75,100,3.22,CA,1678270377
559,pochutla,15.7432,-96.4661,22.68,76,11,1.4,MX,1678270377
560,kisangani,0.5167,25.2,35.6,38,56,1.43,CD,1678270378
561,zwedru,6.0667,-8.1281,29.46,61,98,2.24,LR,1678270378
562,galveston,29.3669,-94.9669,21.98,90,100,4.12,US,1678270378
563,tefe,-3.3542,-64.7114,22.31,99,98,0.7,BR,1678270378
564,diamantino,-14.4086,-56.4461,21.75,96,95,1.14,BR,1678270378
565,lima,-12.0432,-77.0282,23.83,83,40,3.6,PE,1678270361
566,san carlos de bariloche,-41.1456,-71.3082,10.59,94,96,1.96,AR,1678270209
567,jiexiu,37.0244,111.9125,17.24,17,54,3.89,CN,1678270379
568,aksay,47.26,39.87,12.36,49,43,4.47,RU,1678270379
569,alamos,27.0167,-108.9333,17.48,25,61,0.14,MX,1678270379
570,bathsheba,13.2167,-59.5167,25.34,73,20,4.63,BB,1678270380
571,galle,6.0367,80.217,28.74,68,49,3.82,LK,1678270380
572,aktau,43.65,51.2,9.73,57,34,6.73,KZ,1678270380
573,syava,58.0146,46.3222,-1.82,82,97,1.71,RU,1678270380
574,nurobod,40.9056,69.8023,14.76,55,98,3.67,UZ,1678270381
575,arroyos y esteros,-25.0667,-57.1,21.86,96,57,1.17,PY,1678270381
576,bac lieu,9.285,105.7244,26.83,63,2,8.12,VN,1678270381
577,awjilah,29.1081,21.2869,24.86,24,3,7.85,LY,1678270381
578,mount pleasant,32.7941,-79.8626,11.11,40,0,5.66,US,1678270381
579,homer,59.6425,-151.5483,-0.11,86,0,0.89,US,1678270381
580,la primavera,5.4906,-70.4092,25.72,58,100,1.59,CO,1678270381
